City_ID,City,Lat,Lng,Max Temp,Humidity,Cloudiness,Wind Speed,Country,Date
0,masterton,-40.9597,175.6575,22.71,55,83,1.59,NZ,2024-01-30 23:56:20-05:00
1,port-aux-francais,-49.35,70.2167,4.07,73,88,12.95,TF,2024-01-30 23:56:20-05:00
2,jackson,42.4165,-122.8345,17.93,34,0,9.26,US,2024-01-30 23:56:21-05:00
3,filingue,14.3521,3.3168,18.63,21,8,4.95,NE,2024-01-30 23:56:21-05:00
4,mersa matruh,31.3525,27.2453,8.11,81,40,4.12,EG,2024-01-30 23:56:22-05:00
5,iqaluit,63.7506,-68.5145,-25.73,62,40,8.23,CA,2024-01-30 23:56:22-05:00
6,nago,26.5881,127.9761,26.47,68,70,4.61,JP,2024-01-30 23:56:23-05:00
7,caleta de carquin,-11.0925,-77.6267,23.82,82,100,3.65,PE,2024-01-30 23:56:23-05:00
8,olonkinbyen,70.9221,-8.7187,-3.92,73,100,7.04,SJ,2024-01-30 23:56:24-05:00
9,san antonio de pale,-1.4014,5.6325,27.99,76,99,2.6,GQ,2024-01-30 23:56:25-05:00
10,sinabang,2.4803,96.3801,30.04,66,82,1.68,ID,2024-01-30 23:56:25-05:00
11,greytown,-29.0642,30.5928,18.03,85,58,0.6,ZA,2024-01-30 23:56:25-05:00
12,kingston,17.997,-76.7936,24.53,82,20,1.03,JM,2024-01-30 23:50:13-05:00
13,labytnangi,66.6572,66.4183,-16.14,97,100,1.92,RU,2024-01-30 23:56:27-05:00
14,papatowai,-46.5619,169.4708,17.59,50,81,2.52,NZ,2024-01-30 23:56:27-05:00
15,bilibino,68.0546,166.4372,-33.05,99,100,0.52,RU,2024-01-30 23:56:27-05:00
16,weno,7.4515,151.8468,29.97,70,100,5.66,FM,2024-01-30 23:56:28-05:00
17,dudinka,69.4058,86.1778,-17.99,84,97,9.39,RU,2024-01-30 23:56:29-05:00
18,wailua homesteads,22.0669,-159.378,24.24,80,75,3.09,US,2024-01-30 23:56:29-05:00
19,bethel,41.3712,-73.414,1.2,79,100,3.6,US,2024-01-30 23:56:30-05:00
20,blackmans bay,-43.0167,147.3167,20.41,56,87,0.45,AU,2024-01-30 23:56:30-05:00
21,ribeira grande,38.5167,-28.7,13.21,88,26,2.68,PT,2024-01-30 23:56:31-05:00
22,hithadhoo,-0.6,73.0833,27.61,74,36,2.49,MV,2024-01-30 23:56:31-05:00
23,tiksi,71.6872,128.8694,-26.55,97,64,1.83,RU,2024-01-30 23:56:32-05:00
24,adamstown,-25.066,-130.1015,25.29,78,100,12.27,PN,2024-01-30 23:56:32-05:00
25,lorengau,-2.0226,147.2712,29.15,75,100,4.98,PG,2024-01-30 23:56:33-05:00
26,tchintabaraden,15.8969,5.7985,16.18,30,20,5.85,NE,2024-01-30 23:56:34-05:00
27,tazovsky,67.4667,78.7,-22.39,94,64,5.74,RU,2024-01-30 23:56:34-05:00
28,mcdonough,40.4667,-90.6668,3.0,84,100,2.57,US,2024-01-30 23:56:35-05:00
29,znamenskoye,57.1281,73.8282,-15.62,96,96,2.85,RU,2024-01-30 23:56:35-05:00
30,pemangkat,1.1667,108.9667,28.43,78,91,3.29,ID,2024-01-30 23:56:36-05:00
31,hadibu,12.65,54.0333,25.06,71,95,2.22,YE,2024-01-30 23:56:36-05:00
32,waitangi,-43.9535,-176.5597,18.23,98,100,2.24,NZ,2024-01-30 23:56:37-05:00
33,erenhot,43.6475,111.9767,-17.85,79,6,2.03,CN,2024-01-30 23:56:37-05:00
34,egilsstadir,65.2653,-14.3948,-3.05,74,0,0.51,IS,2024-01-30 23:56:38-05:00
35,treinta y tres,-33.2333,-54.3833,16.3,90,0,2.96,UY,2024-01-30 23:56:39-05:00
36,port mathurin,-19.6833,63.4167,27.68,81,100,8.2,MU,2024-01-30 23:56:39-05:00
37,samus',56.7475,84.6992,-18.33,93,99,1.84,RU,2024-01-30 23:56:40-05:00
38,hermanus,-34.4187,19.2345,21.0,74,100,1.33,ZA,2024-01-30 23:56:40-05:00
39,albany,42.6001,-73.9662,-0.46,84,100,2.02,US,2024-01-30 23:56:41-05:00
40,puerto natales,-51.7236,-72.4875,8.74,85,64,1.43,CL,2024-01-30 23:56:41-05:00
41,johnstown,40.3267,-78.922,3.03,92,100,3.09,US,2024-01-30 23:56:42-05:00
42,ulundi,-28.3352,31.4162,20.79,89,40,0.15,ZA,2024-01-30 23:56:42-05:00
43,glace bay,46.1969,-59.957,-5.12,76,40,4.12,CA,2024-01-30 23:56:43-05:00
44,taiyuan,37.8694,112.5603,2.92,44,89,7.0,CN,2024-01-30 23:56:43-05:00
45,leh,34.1667,77.5833,-4.43,60,99,3.09,IN,2024-01-30 23:56:44-05:00
46,avarua,-21.2078,-159.775,29.03,65,98,1.54,CK,2024-01-30 23:56:44-05:00
47,mejit,10.2753,170.8646,26.31,83,100,9.11,MH,2024-01-30 23:56:45-05:00
48,namibe,-15.1961,12.1522,24.07,82,14,1.92,AO,2024-01-30 23:56:45-05:00
49,saipan,15.1355,145.701,28.39,57,40,8.75,MP,2024-01-30 23:56:46-05:00
50,west island,-12.1568,96.8225,29.99,66,75,2.57,CC,2024-01-30 23:56:46-05:00
51,acaponeta,22.4964,-105.3594,20.44,75,99,1.85,MX,2024-01-30 23:56:47-05:00
52,grytviken,-54.2811,-36.5092,2.81,76,20,4.95,GS,2024-01-30 23:56:47-05:00
53,mili,6.0815,171.735,25.69,92,100,7.79,MH,2024-01-30 23:56:48-05:00
54,enewetak,11.3474,162.3373,26.62,70,70,8.94,MH,2024-01-30 23:56:48-05:00
55,nantucket,41.2835,-70.0995,-0.94,69,100,3.6,US,2024-01-30 23:56:49-05:00
56,karpinsk,59.7654,60.0085,-6.51,87,90,2.9,RU,2024-01-30 23:56:49-05:00
57,zhanaozen,43.3,52.8,-1.51,79,68,5.55,KZ,2024-01-30 23:56:50-05:00
58,kingscliff,-28.2667,153.5667,29.87,58,40,9.26,AU,2024-01-30 23:56:50-05:00
59,touros,-5.1989,-35.4608,27.02,72,48,4.28,BR,2024-01-30 23:52:47-05:00
60,duyun,26.2667,107.5167,13.72,94,100,3.32,CN,2024-01-30 23:56:51-05:00
61,duba,27.3513,35.6901,14.83,50,1,2.75,SA,2024-01-30 23:56:51-05:00
62,longyearbyen,78.2186,15.6401,-6.09,68,75,6.17,SJ,2024-01-30 23:56:52-05:00
63,college,64.8569,-147.8028,-31.03,73,75,0.0,US,2024-01-30 23:56:52-05:00
64,ubatuba,-23.4339,-45.0711,24.38,74,89,1.71,BR,2024-01-30 23:52:14-05:00
65,nar'yan-mar,67.6713,53.087,-6.05,92,83,4.92,RU,2024-01-30 23:56:53-05:00
66,edinburgh of the seven seas,-37.0676,-12.3116,13.87,58,89,1.27,SH,2024-01-30 23:56:54-05:00
67,al ghayzah,16.2079,52.176,25.19,71,97,3.42,YE,2024-01-30 23:56:54-05:00
68,machico,32.7,-16.7667,18.35,78,40,1.54,PT,2024-01-30 23:56:55-05:00
69,carnarvon,-24.8667,113.6333,36.48,38,0,4.44,AU,2024-01-30 23:56:55-05:00
70,urumqi,43.801,87.6005,-14.47,72,97,2.0,CN,2024-01-30 23:56:56-05:00
71,stanley,54.868,-1.6985,5.16,78,0,4.63,GB,2024-01-30 23:56:56-05:00
72,flying fish cove,-10.4217,105.6791,28.82,83,100,3.09,CX,2024-01-30 23:56:56-05:00
73,altay,47.8667,88.1167,-9.35,72,97,0.49,CN,2024-01-30 23:56:57-05:00
74,parauna,-16.9478,-50.4486,21.13,74,92,1.54,BR,2024-01-30 23:56:57-05:00
75,udachny,66.4167,112.4,-23.64,76,90,1.39,RU,2024-01-30 23:56:58-05:00
76,callao,-12.0667,-77.15,25.95,73,75,3.6,PE,2024-01-30 23:56:58-05:00
77,port augusta,-32.5,137.7667,27.88,28,0,9.75,AU,2024-01-30 23:56:59-05:00
78,happy valley-goose bay,53.3168,-60.3315,-12.83,47,20,6.17,CA,2024-01-30 23:57:00-05:00
79,ancud,-41.8697,-73.8203,13.94,95,100,1.92,CL,2024-01-30 23:57:00-05:00
80,st. john's,47.5649,-52.7093,-4.62,84,100,7.2,CA,2024-01-30 23:57:01-05:00
81,maloye ganyushkino,46.6,49.2667,-2.67,94,100,4.54,KZ,2024-01-30 23:57:01-05:00
82,hawaiian paradise park,19.5933,-154.9731,24.73,91,40,2.06,US,2024-01-30 23:57:02-05:00
83,port lincoln,-34.7333,135.8667,20.5,55,0,6.22,AU,2024-01-30 23:57:02-05:00
84,qaqortoq,60.7167,-46.0333,-12.16,94,100,4.75,GL,2024-01-30 23:57:03-05:00
85,punta arenas,-53.15,-70.9167,9.06,71,0,4.63,CL,2024-01-30 23:57:03-05:00
86,invercargill,-46.4,168.35,18.9,45,80,5.36,NZ,2024-01-30 23:50:43-05:00
87,sambava,-14.2667,50.1667,26.07,80,91,1.63,MG,2024-01-30 23:57:04-05:00
88,bodegraven,52.0825,4.75,6.68,89,77,1.34,NL,2024-01-30 23:57:05-05:00
89,zaozersk,69.4005,32.4476,-0.23,74,100,15.28,RU,2024-01-30 23:57:05-05:00
90,bharatpur,27.2167,77.4833,19.35,53,75,3.21,IN,2024-01-30 23:57:06-05:00
91,ulsteinvik,62.3432,5.8487,7.07,81,99,8.93,NO,2024-01-30 23:57:07-05:00
92,ocean shores,46.9737,-124.1563,12.94,94,100,5.14,US,2024-01-30 23:57:07-05:00
93,margaret river,-33.95,115.0667,27.4,55,1,6.15,AU,2024-01-30 23:57:08-05:00
94,choibalsan,48.0667,114.5,-22.67,86,4,4.08,MN,2024-01-30 23:57:08-05:00
95,tabou,4.423,-7.3528,26.44,85,77,2.82,CI,2024-01-30 23:57:09-05:00
96,ebon,4.582,168.6964,27.41,78,100,4.23,MH,2024-01-30 23:57:09-05:00
97,brisas de zicatela,15.8369,-97.0419,23.95,77,47,1.76,MX,2024-01-30 23:57:10-05:00
98,clinton,42.587,-82.9199,2.01,94,100,0.0,US,2024-01-30 23:57:10-05:00
99,thompson,55.7435,-97.8558,1.09,93,100,1.03,CA,2024-01-30 23:57:11-05:00
100,smithfield,41.922,-71.5495,-2.76,82,100,1.79,US,2024-01-30 23:57:11-05:00
101,greenville,35.6127,-77.3663,5.02,91,0,2.24,US,2024-01-30 23:53:55-05:00
102,dar chioukh,34.8964,3.4854,6.57,83,100,2.15,DZ,2024-01-30 23:57:12-05:00
103,bredasdorp,-34.5322,20.0403,19.47,88,81,1.16,ZA,2024-01-30 23:57:13-05:00
104,keflavik,64.0049,-22.5624,-2.05,93,75,2.57,IS,2024-01-30 23:57:13-05:00
105,kununurra,-15.7667,128.7333,33.99,62,18,3.6,AU,2024-01-30 23:55:12-05:00
106,bytow,54.1706,17.4919,5.67,91,100,4.46,PL,2024-01-30 23:57:14-05:00
107,dhuusamarreeb,5.535,46.3861,23.48,72,94,7.16,SO,2024-01-30 23:57:15-05:00
108,yenifakili,39.2114,35.0004,-2.29,72,54,4.0,TR,2024-01-30 23:57:16-05:00
109,harper,4.375,-7.7169,26.79,84,80,2.88,LR,2024-01-30 23:57:16-05:00
110,gordonvale,-17.0936,145.7842,34.39,72,98,0.8,AU,2024-01-30 23:57:17-05:00
111,luderitz,-26.6481,15.1594,18.43,84,0,4.48,NA,2024-01-30 23:57:17-05:00
112,mityana,0.4175,32.0228,19.37,87,97,0.33,UG,2024-01-30 23:57:18-05:00
113,whitehouse,32.2268,-95.2255,13.15,67,0,1.78,US,2024-01-30 23:57:01-05:00
114,lebu,-37.6167,-73.65,14.61,84,0,6.44,CL,2024-01-30 23:57:19-05:00
115,atafu village,-8.5421,-172.5159,29.41,70,24,1.93,TK,2024-01-30 23:57:20-05:00
116,as sulayyil,20.4607,45.5779,17.14,54,66,1.39,SA,2024-01-30 23:57:20-05:00
117,karratha,-20.7377,116.8463,31.66,53,41,5.82,AU,2024-01-30 23:55:45-05:00
118,qandala,11.472,49.8728,25.22,69,69,1.13,SO,2024-01-30 23:57:21-05:00
119,lompoc,34.6391,-120.4579,12.4,93,0,2.57,US,2024-01-30 23:57:22-05:00
120,myrina,39.8797,25.0742,5.58,61,40,13.38,GR,2024-01-30 23:57:22-05:00
121,haiku-pauwela,20.9219,-156.3051,21.39,91,75,4.12,US,2024-01-30 23:57:23-05:00
122,afaahiti,-17.75,-149.2833,27.2,80,88,3.7,PF,2024-01-30 23:57:23-05:00
123,port moresby,-9.4431,147.1797,30.68,66,40,5.14,PG,2024-01-30 23:57:24-05:00
124,hakodate,41.7758,140.7367,1.17,86,75,3.6,JP,2024-01-30 23:57:24-05:00
125,okhotsk,59.3833,143.3,-19.21,78,31,5.84,RU,2024-01-30 23:55:21-05:00
126,nikolayevsk-on-amure,53.1406,140.73,-16.32,81,87,3.83,RU,2024-01-30 23:57:25-05:00
127,ushuaia,-54.8,-68.3,8.81,71,0,10.29,AR,2024-01-30 23:55:01-05:00
128,portland,45.5234,-122.6762,13.38,74,100,4.12,US,2024-01-30 23:47:53-05:00
129,paciran,-6.8767,112.3761,29.23,73,42,4.05,ID,2024-01-30 23:55:06-05:00
130,ciudad insurgentes,25.2625,-111.7753,17.9,60,11,3.11,MX,2024-01-30 23:57:27-05:00
131,tromso,69.6496,18.957,3.01,52,75,13.11,NO,2024-01-30 23:56:24-05:00
132,kanniyakumari,8.0833,77.5667,28.64,67,19,3.82,IN,2024-01-30 23:57:29-05:00
133,kolosovka,56.4678,73.611,-17.19,97,88,3.4,RU,2024-01-30 23:57:29-05:00
134,talnakh,69.4865,88.3972,-18.22,78,100,4.45,RU,2024-01-30 23:57:30-05:00
135,vadso,70.0744,29.7487,3.09,65,20,18.01,NO,2024-01-30 23:57:30-05:00
136,eyl,7.9803,49.8164,26.03,62,63,5.37,SO,2024-01-30 23:57:31-05:00
137,madanapalle,13.55,78.5,25.27,56,58,1.92,IN,2024-01-30 23:57:31-05:00
138,le lavandou,43.137,6.366,8.75,93,45,1.54,FR,2024-01-30 23:57:32-05:00
139,nako,31.8814,78.627,-4.27,68,97,4.13,IN,2024-01-30 23:57:32-05:00
140,puerto ayora,-0.7393,-90.3518,24.99,89,95,4.34,EC,2024-01-30 23:57:33-05:00
141,arraial do cabo,-22.9661,-42.0278,24.72,92,54,3.37,BR,2024-01-30 23:57:33-05:00
142,santa ana de yacuma,-13.75,-65.4333,24.54,88,100,1.14,BO,2024-01-30 23:57:34-05:00
143,san miguel de cauri,-10.1,-76.5833,7.92,88,100,1.09,PE,2024-01-30 23:57:34-05:00
144,port elizabeth,-33.918,25.5701,21.84,87,0,3.09,ZA,2024-01-30 23:57:35-05:00
145,mata-utu,-13.2816,-176.1745,29.54,79,99,6.22,WF,2024-01-30 23:57:36-05:00
146,miches,18.9836,-69.0476,23.55,79,100,3.69,DO,2024-01-30 23:57:36-05:00
147,lugu,23.7464,120.7525,25.13,51,14,3.6,TW,2024-01-30 23:57:37-05:00
148,cabo san lucas,22.8909,-109.9124,24.31,81,99,4.2,MX,2024-01-30 23:54:54-05:00
149,yanchep,-31.55,115.6833,43.9,36,0,5.54,AU,2024-01-30 23:57:38-05:00
150,tolanaro,-25.0319,46.9987,24.04,94,40,4.12,MG,2024-01-30 23:57:39-05:00
151,thyez,46.0825,6.5378,8.08,66,13,1.91,FR,2024-01-30 23:57:39-05:00
152,tangalle,6.024,80.7911,30.09,68,45,2.44,LK,2024-01-30 23:57:40-05:00
153,nampula,-15.1165,39.2666,22.97,94,75,0.0,MZ,2024-01-30 23:55:17-05:00
154,fort st. john,56.2499,-120.8529,4.94,60,20,7.72,CA,2024-01-30 23:57:41-05:00
155,westport,41.1415,-73.3579,1.99,74,100,4.12,US,2024-01-30 23:53:24-05:00
156,chebarkul',54.9749,60.3633,-9.13,97,99,1.41,RU,2024-01-30 23:57:42-05:00
157,villa gesell,-37.2639,-56.973,21.14,77,85,3.37,AR,2024-01-30 23:56:58-05:00
158,ozu,33.5,132.55,11.77,87,100,1.88,JP,2024-01-30 23:57:44-05:00
159,jiuquan,39.7432,98.5174,-3.62,34,100,3.7,CN,2024-01-30 23:57:44-05:00
160,palmer,42.1584,-72.3287,-1.75,77,100,0.0,US,2024-01-30 23:57:32-05:00
161,loango,-4.6719,11.8312,27.81,89,75,1.03,CG,2024-01-30 23:57:45-05:00
162,sidi akkacha,36.4647,1.3026,10.16,93,98,1.57,DZ,2024-01-30 23:57:45-05:00
163,alice springs,-23.7,133.8833,37.75,12,59,9.77,AU,2024-01-30 23:57:46-05:00
164,remire-montjoly,4.9167,-52.2667,27.02,94,75,5.14,GF,2024-01-30 23:57:46-05:00
165,calama,-22.4667,-68.9333,13.27,33,0,5.14,CL,2024-01-30 23:57:47-05:00
166,amasra,41.7463,32.3863,3.59,70,1,4.32,TR,2024-01-30 23:57:47-05:00
167,mouila,-1.8685,11.0559,24.57,97,100,0.3,GA,2024-01-30 23:57:48-05:00
168,grants,35.1473,-107.8514,-0.87,64,0,2.57,US,2024-01-30 23:57:48-05:00
169,creel,27.75,-107.6333,6.57,81,100,1.46,MX,2024-01-30 23:57:49-05:00
170,vila franca do campo,37.7167,-25.4333,13.23,88,49,2.17,PT,2024-01-30 23:57:50-05:00
171,varkaus,62.3153,27.873,-1.5,98,100,3.26,FI,2024-01-30 23:57:50-05:00
172,serendah,3.3646,101.6041,34.16,53,99,10.28,MY,2024-01-30 23:57:50-05:00
173,iskateley,67.6803,53.1512,-6.1,92,82,4.92,RU,2024-01-30 23:57:51-05:00
174,vostochnyy,55.8167,37.8667,-0.85,100,100,1.81,RU,2024-01-30 23:57:51-05:00
175,velikiy ustyug,60.7644,46.3106,-3.67,93,50,3.58,RU,2024-01-30 23:57:52-05:00
176,bulungu,-4.55,18.6,22.07,97,100,0.87,CD,2024-01-30 23:57:52-05:00
177,kodiak,57.79,-152.4072,-12.27,61,0,0.0,US,2024-01-30 23:56:49-05:00
178,mogocha,53.7333,119.7667,-16.42,65,76,3.19,RU,2024-01-30 23:57:53-05:00
179,le port,-20.9373,55.2919,30.0,74,43,1.48,RE,2024-01-30 23:57:53-05:00
180,palikir - national government center,6.9248,158.1611,28.41,65,100,2.57,FM,2024-01-30 23:57:54-05:00
181,hemsby,52.6971,1.6918,5.55,87,32,4.46,GB,2024-01-30 23:57:54-05:00
182,vilyuysk,63.7553,121.6247,-24.05,95,100,1.8,RU,2024-01-30 23:57:55-05:00
183,anloga,5.7947,0.8973,26.74,80,8,5.42,GH,2024-01-30 23:57:55-05:00
184,lexington park,38.2668,-76.4538,4.8,83,75,2.57,US,2024-01-30 23:57:56-05:00
185,whitehorse,60.7161,-135.0538,-2.57,46,0,1.03,CA,2024-01-30 23:57:57-05:00
186,boise,43.6135,-116.2035,8.21,84,0,2.57,US,2024-01-30 23:56:02-05:00
187,kavaratti,10.5669,72.642,27.66,67,14,3.2,IN,2024-01-30 23:57:57-05:00
188,paraiso,9.8383,-83.8656,18.48,95,86,2.0,CR,2024-01-30 23:57:58-05:00
189,bardai,11.65,7.2333,17.18,20,29,5.76,NG,2024-01-30 23:57:58-05:00
190,klyuchi,52.2667,79.1667,-10.13,86,100,3.06,RU,2024-01-30 23:57:59-05:00
191,kalix,65.853,23.1565,-4.64,83,70,6.55,SE,2024-01-30 23:57:59-05:00
192,nizhniy odes,63.6445,54.856,-14.43,100,97,1.29,RU,2024-01-30 23:58:00-05:00
193,dholka,22.7167,72.4667,25.21,51,96,1.99,IN,2024-01-30 23:58:00-05:00
194,tidjikja,18.5564,-11.4271,16.34,16,0,5.92,MR,2024-01-30 23:58:01-05:00
195,anadyr,64.75,177.4833,-32.72,74,0,3.58,RU,2024-01-30 23:58:01-05:00
196,paita,-5.0892,-81.1144,24.34,81,100,3.92,PE,2024-01-30 23:58:01-05:00
197,massakory,12.996,15.7293,18.26,22,0,6.58,TD,2024-01-30 23:58:02-05:00
198,kurchatov,51.6601,35.6521,-3.77,93,99,2.26,RU,2024-01-30 23:58:02-05:00
199,utrik,11.2278,169.8474,26.21,78,100,7.85,MH,2024-01-30 23:58:03-05:00
200,labrador city,52.9463,-66.9114,-10.05,69,100,7.15,CA,2024-01-30 23:52:41-05:00
201,choyr,46.3611,108.3611,-22.8,86,26,1.77,MN,2024-01-30 23:58:04-05:00
202,ilulissat,69.2167,-51.1,-30.02,69,16,3.92,GL,2024-01-30 23:58:05-05:00
203,yellowknife,62.456,-114.3525,-11.44,97,100,2.57,CA,2024-01-30 23:58:05-05:00
204,pisco,-13.7,-76.2167,24.03,78,100,4.63,PE,2024-01-30 23:54:11-05:00
205,bafia,4.75,11.2333,19.31,80,81,0.38,CM,2024-01-30 23:58:06-05:00
206,codrington,-38.2667,141.9667,19.93,58,39,5.47,AU,2024-01-30 23:58:06-05:00
207,klimovsk,55.3647,37.525,-0.9,100,100,3.0,RU,2024-01-30 23:58:07-05:00
208,kapuskasing,49.4169,-82.4331,1.05,86,100,5.66,CA,2024-01-30 23:58:07-05:00
209,troitskoye,52.9821,84.6757,-10.93,87,94,1.74,RU,2024-01-30 23:58:08-05:00
210,port alfred,-33.5906,26.891,21.21,92,96,0.89,ZA,2024-01-30 23:58:08-05:00
211,uturoa,-16.7333,-151.4333,29.0,74,89,5.36,PF,2024-01-30 23:58:09-05:00
212,saint-joseph,-21.3667,55.6167,29.21,79,51,4.07,RE,2024-01-30 23:58:09-05:00
213,moshkovo,55.3053,83.6104,-15.59,87,94,2.19,RU,2024-01-30 23:58:10-05:00
214,cannonvale,-20.2833,148.7,30.66,79,90,2.21,AU,2024-01-30 23:58:11-05:00
215,nioki,-2.7167,17.6833,22.66,90,100,1.18,CD,2024-01-30 23:58:11-05:00
216,galveston,29.3669,-94.9669,14.44,77,0,4.12,US,2024-01-30 23:58:12-05:00
217,clodomira,-27.5744,-64.1311,26.38,36,63,3.29,AR,2024-01-30 23:58:12-05:00
218,al kharijah,25.4514,30.5464,6.66,53,0,1.37,EG,2024-01-30 23:58:13-05:00
219,woolgoolga,-30.1106,153.2007,27.93,66,64,3.89,AU,2024-01-30 23:58:14-05:00
220,sechura,-5.5569,-80.8222,25.33,75,99,4.6,PE,2024-01-30 23:58:14-05:00
221,puerto san jose,13.9256,-90.8244,24.47,73,3,2.47,GT,2024-01-30 23:58:15-05:00
222,kaa-khem,51.6833,94.7333,-23.96,92,70,0.84,RU,2024-01-30 23:58:15-05:00
223,cotonou,6.3654,2.4183,27.99,83,20,3.09,BJ,2024-01-30 23:58:16-05:00
224,isafjordur,66.0755,-23.124,-5.05,70,65,3.56,IS,2024-01-30 23:58:17-05:00
225,kirakira,-10.4544,161.9205,28.45,80,98,5.49,SB,2024-01-30 23:58:17-05:00
226,tura,25.5198,90.2201,23.5,32,0,1.47,IN,2024-01-30 23:58:18-05:00
227,famagusta,35.125,33.95,12.27,74,94,9.46,CY,2024-01-30 23:58:18-05:00
228,ghat,24.9647,10.1728,7.07,56,0,1.92,LY,2024-01-30 23:58:19-05:00
229,danane,7.2596,-8.155,18.65,70,73,1.08,CI,2024-01-30 23:58:19-05:00
230,puerto baquerizo moreno,-0.9,-89.6,25.23,87,90,5.62,EC,2024-01-30 23:58:20-05:00
231,cabedelo,-6.9811,-34.8339,25.37,74,30,2.73,BR,2024-01-30 23:58:20-05:00
232,liuduzhai,27.3661,110.935,12.23,95,100,0.73,CN,2024-01-30 23:58:21-05:00
233,zalingei,12.9096,23.4741,15.8,24,16,2.62,SD,2024-01-30 23:58:21-05:00
234,waddan,29.1614,16.139,6.97,82,9,2.87,LY,2024-01-30 23:58:22-05:00
235,metro,-5.1131,105.3067,30.1,69,87,3.43,ID,2024-01-30 23:58:22-05:00
236,minas de marcona,-15.2119,-75.1103,18.66,82,100,3.76,PE,2024-01-30 23:58:23-05:00
237,kasane,-17.8167,25.15,21.05,100,0,1.54,BW,2024-01-30 23:58:23-05:00
238,jarny,49.1574,5.8788,7.34,95,100,0.45,FR,2024-01-30 23:58:24-05:00
239,warner robins,32.621,-83.5999,12.08,59,75,4.12,US,2024-01-30 23:58:24-05:00
240,axim,4.8699,-2.2405,26.01,83,14,2.02,GH,2024-01-30 23:58:25-05:00
241,cockburn town,21.4612,-71.1419,23.64,57,6,3.17,TC,2024-01-30 23:57:17-05:00
242,tadine,-21.55,167.8833,26.68,65,73,4.55,NC,2024-01-30 23:58:26-05:00
243,lesnoy,57.6198,63.0784,-8.79,96,100,1.71,RU,2024-01-30 23:58:26-05:00
244,georgetown,5.4112,100.3354,31.96,62,20,2.57,MY,2024-01-30 23:58:27-05:00
245,gurupa,-1.405,-51.64,23.42,94,62,1.22,BR,2024-01-30 23:58:27-05:00
246,tsiombe,-25.3,45.4833,25.81,70,93,7.69,MG,2024-01-30 23:58:28-05:00
247,vorgashor,67.5833,63.95,-13.46,95,100,4.43,RU,2024-01-30 23:58:28-05:00
248,hamilton,39.1834,-84.5333,3.21,96,100,4.12,US,2024-01-30 23:55:15-05:00
249,gadzhiyevo,69.2551,33.3362,0.14,72,100,14.9,RU,2024-01-30 23:58:29-05:00
250,mangalia,43.8,28.5833,0.96,79,85,4.0,RO,2024-01-30 23:58:30-05:00
251,new norfolk,-42.7826,147.0587,21.07,28,74,2.63,AU,2024-01-30 23:58:30-05:00
252,taltal,-25.4,-70.4833,20.29,84,31,0.95,CL,2024-01-30 23:50:21-05:00
253,phang nga,8.4509,98.5298,31.02,42,66,2.11,TH,2024-01-30 23:58:31-05:00
254,hammerfest,70.6634,23.6821,3.25,52,20,20.06,NO,2024-01-30 23:58:32-05:00
255,yuzhno-kurilsk,44.0306,145.8556,-2.01,71,100,4.14,RU,2024-01-30 23:58:32-05:00
256,dryden,49.7833,-92.7503,-0.84,93,20,4.63,CA,2024-01-30 23:58:33-05:00
257,gadani,25.1185,66.7299,22.12,71,100,3.74,PK,2024-01-30 23:58:33-05:00
258,tanumah,27.1,44.1333,11.88,61,0,2.91,SA,2024-01-30 23:58:34-05:00
259,penzance,50.1186,-5.5371,8.38,76,17,6.7,GB,2024-01-30 23:58:35-05:00
260,chifeng,42.2683,118.9636,-9.84,37,9,2.48,CN,2024-01-30 23:58:35-05:00
261,kone,-21.0595,164.8658,25.47,88,90,0.73,NC,2024-01-30 23:58:36-05:00
262,cochrane,51.1834,-114.4687,9.15,56,100,4.12,CA,2024-01-30 23:58:36-05:00
263,katsuura,35.1333,140.3,13.01,70,16,9.08,JP,2024-01-30 23:58:37-05:00
264,las tablas,7.7667,-80.2833,23.99,99,62,8.52,PA,2024-01-30 23:58:37-05:00
265,sitka,57.0531,-135.33,1.94,60,100,2.57,US,2024-01-30 23:58:38-05:00
266,marsh harbour,26.5412,-77.0636,19.99,49,57,2.13,BS,2024-01-30 23:58:38-05:00
267,aswan,24.0934,32.907,7.61,53,0,2.57,EG,2024-01-30 23:54:17-05:00
268,saint-pierre,-21.3393,55.4781,29.82,66,0,1.54,RE,2024-01-30 23:58:39-05:00
269,mandan,46.8267,-100.8896,6.56,81,0,5.14,US,2024-01-30 23:55:37-05:00
270,aasiaat,68.7098,-52.8699,-28.83,92,65,5.6,GL,2024-01-30 23:58:40-05:00
271,inarajan village,13.2736,144.7484,29.54,69,44,10.22,GU,2024-01-30 23:58:41-05:00
272,talara,-4.5772,-81.2719,24.14,85,100,3.5,PE,2024-01-30 23:58:41-05:00
273,petropavlovsk-kamchatsky,53.0452,158.6483,-10.67,70,75,4.0,RU,2024-01-30 23:58:42-05:00
274,kegeyli shahar,42.7767,59.6078,-7.95,59,100,6.52,UZ,2024-01-30 23:58:42-05:00
275,kapa'a,22.0752,-159.319,23.18,81,75,3.09,US,2024-01-30 23:58:43-05:00
276,richards bay,-28.783,32.0377,23.88,77,3,0.98,ZA,2024-01-30 23:58:43-05:00
277,la gi,10.6667,107.7833,29.18,59,77,6.95,VN,2024-01-30 23:58:44-05:00
278,champoton,19.35,-90.7167,18.4,75,0,3.33,MX,2024-01-30 23:58:44-05:00
279,panji,-7.7253,114.0995,30.63,66,77,2.82,ID,2024-01-30 23:58:44-05:00
280,punta de bombon,-17.1717,-71.7931,22.47,84,99,1.94,PE,2024-01-30 23:58:45-05:00
281,taoudenni,22.6783,-3.9836,16.06,32,0,4.73,ML,2024-01-30 23:58:45-05:00
282,san policarpio,12.0675,124.5625,29.47,62,100,5.5,PH,2024-01-30 23:58:46-05:00
283,chicoana,-25.1009,-65.5331,22.03,69,100,1.17,AR,2024-01-30 23:58:46-05:00
284,beau vallon,-20.4189,57.6953,29.01,78,40,2.06,MU,2024-01-30 23:58:47-05:00
285,angaur state,6.906,134.13,27.67,83,85,9.8,PW,2024-01-30 23:58:47-05:00
286,tongchuanshi,35.0806,109.0897,5.98,59,74,3.74,CN,2024-01-30 23:58:48-05:00
287,bonga,7.2833,36.2333,17.63,90,95,0.76,ET,2024-01-30 23:58:48-05:00
288,labin,45.095,14.1197,5.52,58,74,1.71,HR,2024-01-30 23:58:49-05:00
289,badger,64.8,-147.5333,-30.91,75,20,0.0,US,2024-01-30 23:58:50-05:00
290,huittinen,61.1833,22.7,1.05,99,100,2.2,FI,2024-01-30 23:58:51-05:00
291,tartagal,-22.5164,-63.8013,25.41,59,23,1.51,AR,2024-01-30 23:58:52-05:00
292,abepura,-2.6333,140.5833,30.45,74,20,2.06,ID,2024-01-30 23:58:52-05:00
293,nizhniy lomov,53.5304,43.6766,-14.55,100,86,1.0,RU,2024-01-30 23:58:53-05:00
294,tazacorte,28.629,-17.9293,18.42,30,0,4.47,ES,2024-01-30 23:58:54-05:00
295,colonia menno,-22.3667,-59.8167,28.48,52,60,3.92,PY,2024-01-30 23:58:54-05:00
296,el calafate,-50.3408,-72.2768,10.15,72,18,3.05,AR,2024-01-30 23:58:55-05:00
297,comodoro rivadavia,-45.8667,-67.5,21.92,37,0,9.26,AR,2024-01-30 23:58:55-05:00
298,daru,-9.0763,143.2092,28.99,79,99,3.93,PG,2024-01-30 23:58:55-05:00
299,porto novo,6.4965,2.6036,27.9,87,49,1.39,BJ,2024-01-30 23:58:56-05:00
300,retreat,38.8245,-85.8533,3.88,94,100,1.34,US,2024-01-30 23:58:56-05:00
301,inirida,3.8653,-67.9239,25.33,74,23,0.32,CO,2024-01-30 23:58:57-05:00
302,bijawar,24.6333,79.5,21.59,33,99,2.45,IN,2024-01-30 23:58:57-05:00
303,kerikeri,-35.2268,173.9474,22.88,71,70,1.71,NZ,2024-01-30 23:58:58-05:00
304,hayrabolu,41.2131,27.1069,1.77,87,89,6.24,TR,2024-01-30 23:55:21-05:00
305,andergrove,-21.0833,149.1833,33.14,82,83,5.13,AU,2024-01-30 23:58:58-05:00
306,tympaki,35.0729,24.7685,6.98,92,100,2.84,GR,2024-01-30 23:58:59-05:00
307,snyder,32.7179,-100.9176,12.19,40,0,3.6,US,2024-01-30 23:58:59-05:00
308,noumea,-22.2763,166.4572,31.99,67,52,5.86,NC,2024-01-30 23:57:01-05:00
309,salym,60.0625,71.4789,-13.2,95,100,3.7,RU,2024-01-30 23:59:01-05:00
310,dolores,-36.3132,-57.6792,20.65,76,51,3.56,AR,2024-01-30 23:59:01-05:00
311,tobruk,32.0836,23.9764,11.02,67,99,13.65,LY,2024-01-30 23:59:02-05:00
312,santa marta,11.2408,-74.199,27.72,71,68,7.15,CO,2024-01-30 23:58:16-05:00
313,lihue,21.9789,-159.3672,22.77,77,75,3.09,US,2024-01-30 23:59:04-05:00
314,zapala,-38.8992,-70.0544,15.69,33,5,0.08,AR,2024-01-30 23:59:04-05:00
315,sao felix do xingu,-6.6447,-51.995,22.01,95,98,0.21,BR,2024-01-30 23:59:04-05:00
316,colonia,50.9333,6.95,7.76,85,100,2.57,DE,2024-01-30 23:54:35-05:00
317,mobaye,4.319,21.1786,22.02,46,96,1.34,CF,2024-01-30 23:59:06-05:00
318,singkil,-7.9855,111.4161,30.6,68,23,1.48,ID,2024-01-30 23:59:06-05:00
319,sena madureira,-9.0656,-68.6569,23.57,98,100,0.73,BR,2024-01-30 23:59:07-05:00
320,ringkobing,56.0901,8.244,3.9,86,25,8.78,DK,2024-01-30 23:59:07-05:00
321,melfort,52.8667,-104.6177,5.07,60,88,6.69,CA,2024-01-30 23:59:07-05:00
322,bandarbeyla,9.4942,50.8122,26.15,61,82,5.17,SO,2024-01-30 23:59:08-05:00
323,praia da vitoria,38.7333,-27.0667,13.2,100,40,2.11,PT,2024-01-30 23:59:08-05:00
324,laguna,38.421,-121.4238,16.67,73,0,1.54,US,2024-01-30 23:59:09-05:00
325,muisne,0.6,-80.0333,25.23,92,100,2.43,EC,2024-01-30 23:59:09-05:00
326,greymouth,-42.4667,171.2,18.37,75,29,2.82,NZ,2024-01-30 23:59:10-05:00
327,cidreira,-30.1811,-50.2056,19.19,94,17,3.1,BR,2024-01-30 23:59:10-05:00
328,san luis de la loma,17.2706,-100.8939,24.93,79,100,1.21,MX,2024-01-30 23:59:11-05:00
329,huilong,31.8111,121.655,9.03,97,100,2.6,CN,2024-01-30 23:59:11-05:00
330,itanhem,-17.1664,-40.33,23.33,92,100,1.43,BR,2024-01-30 23:59:12-05:00
331,vilyuchinsk,52.9306,158.4028,-9.85,72,100,2.17,RU,2024-01-30 23:59:13-05:00
332,williamston,35.8546,-77.0555,5.0,85,78,3.07,US,2024-01-30 23:59:13-05:00
333,chinchilla,-26.75,150.6333,31.12,55,32,4.02,AU,2024-01-30 23:59:14-05:00
334,midelt,32.6852,-4.7451,4.82,40,0,1.12,MA,2024-01-30 23:59:14-05:00
335,lerwick,60.1545,-1.1494,8.0,80,100,15.72,GB,2024-01-30 23:59:15-05:00
336,luganville,-15.5333,167.1667,28.71,77,68,1.52,VU,2024-01-30 23:59:15-05:00
337,bocaiuva,-17.1078,-43.815,21.84,96,100,1.39,BR,2024-01-30 23:59:16-05:00
338,saint-louis,16.3333,-15.0,18.8,13,0,5.0,SN,2024-01-30 23:59:16-05:00
339,cafayate,-26.073,-65.9761,23.15,59,94,2.53,AR,2024-01-30 23:59:17-05:00
340,fale old settlement,-9.3852,-171.2468,29.8,68,36,1.56,TK,2024-01-30 23:59:18-05:00
341,ust-nera,64.5667,143.2,-29.26,98,100,2.16,RU,2024-01-30 23:59:18-05:00
342,pechora,65.1472,57.2244,-12.04,99,95,1.86,RU,2024-01-30 23:54:37-05:00
343,leava,-14.3,-178.1667,29.38,83,94,7.26,WF,2024-01-30 23:59:19-05:00
344,sisimiut,66.9395,-53.6735,-19.3,75,100,5.91,GL,2024-01-30 23:59:20-05:00
345,angra do heroismo,38.65,-27.2167,13.4,94,40,0.45,PT,2024-01-30 23:59:20-05:00
346,kinablangan,7.6947,126.5503,25.91,91,100,4.35,PH,2024-01-30 23:59:21-05:00
347,la'ie,21.6477,-157.9253,23.98,82,29,3.45,US,2024-01-30 23:59:21-05:00
348,castillos,-34.1667,-53.8333,16.69,93,1,2.42,UY,2024-01-30 23:59:21-05:00
349,rabo de peixe,37.8,-25.5833,12.73,88,20,3.09,PT,2024-01-30 23:59:22-05:00
350,kristiansund,63.1115,7.732,8.36,49,100,5.66,NO,2024-01-30 23:59:23-05:00
351,guerrero negro,27.9769,-114.0611,17.72,67,0,3.82,MX,2024-01-30 23:59:23-05:00
352,nuuk,64.1835,-51.7216,-9.51,85,100,16.09,GL,2024-01-30 23:59:23-05:00
353,mazatlan,23.2167,-106.4167,24.39,70,57,0.45,MX,2024-01-30 23:59:24-05:00
354,kedougou,12.5579,-12.1743,23.63,16,100,1.4,SN,2024-01-30 23:59:24-05:00
355,laascaanood,8.4774,47.3597,20.07,70,60,5.31,SO,2024-01-30 23:59:25-05:00
356,maceio,-9.6658,-35.7353,23.69,100,20,1.54,BR,2024-01-30 23:59:25-05:00
357,mount pearl,47.5166,-52.7813,-5.08,84,100,7.2,CA,2024-01-30 23:59:26-05:00
358,mercedes,-34.6515,-59.4307,23.81,48,32,3.56,AR,2024-01-30 23:59:26-05:00
359,la passe,45.5549,-0.8967,7.13,91,92,2.17,FR,2024-01-30 23:59:27-05:00
360,dunedin,-45.8742,170.5036,17.67,84,80,1.34,NZ,2024-01-30 23:54:57-05:00
361,xilin hot,43.9667,116.0333,-20.88,78,12,0.77,CN,2024-01-30 23:59:28-05:00
362,nabire,-3.3667,135.4833,30.49,67,83,3.07,ID,2024-01-30 23:59:28-05:00
363,nova sintra,14.8667,-24.7167,20.77,60,0,5.56,CV,2024-01-30 23:59:29-05:00
364,linhares,-19.3911,-40.0722,23.51,97,100,2.03,BR,2024-01-30 23:59:29-05:00
365,yola,9.2,12.4833,20.79,25,44,0.92,NG,2024-01-30 23:59:30-05:00
366,hasaki,35.7333,140.8333,13.22,46,23,5.54,JP,2024-01-30 23:59:30-05:00
367,ailuk,10.2197,169.9797,26.42,78,100,8.77,MH,2024-01-30 23:59:31-05:00
368,ust'-ilimsk,58.0006,102.6619,-20.99,78,30,0.89,RU,2024-01-30 23:59:11-05:00
369,dvurechensk,56.5982,61.0953,-5.79,97,87,1.55,RU,2024-01-30 23:59:32-05:00
370,yamada,39.4667,141.95,9.77,58,83,5.21,JP,2024-01-30 23:59:32-05:00
371,prado,-17.3411,-39.2208,23.88,94,96,3.03,BR,2024-01-30 23:59:33-05:00
372,ivins,37.1686,-113.6794,13.96,56,0,0.89,US,2024-01-30 23:59:33-05:00
373,san patricio,28.017,-97.5169,14.91,69,100,1.91,US,2024-01-30 23:59:34-05:00
374,ciudad gustavo diaz ordaz,26.2333,-98.5833,16.12,80,100,3.45,MX,2024-01-30 23:59:34-05:00
375,arauca,7.0847,-70.7591,27.61,46,91,0.16,CO,2024-01-30 23:59:35-05:00
376,amarante do maranhao,-5.5667,-46.7422,22.27,97,72,0.39,BR,2024-01-30 23:59:35-05:00
377,port hedland,-20.3167,118.5667,34.03,62,43,7.72,AU,2024-01-30 23:59:36-05:00
378,heroica ciudad de tlaxiaco,17.2667,-97.6833,12.07,63,69,1.25,MX,2024-01-30 23:59:37-05:00
379,ciudad guayana,8.3533,-62.6528,26.96,81,50,2.49,VE,2024-01-30 23:59:37-05:00
380,moab,38.5733,-109.5498,6.38,60,0,0.74,US,2024-01-30 23:59:38-05:00
381,al bawiti,28.3492,28.8659,7.61,54,18,3.84,EG,2024-01-30 23:59:38-05:00
382,playa blanca,28.8643,-13.8281,19.06,69,100,5.95,ES,2024-01-30 23:59:39-05:00
383,boa vista,2.8197,-60.6733,25.99,78,0,2.06,BR,2024-01-30 23:58:34-05:00
384,anaconda,46.1285,-112.9423,-0.45,74,73,2.55,US,2024-01-30 23:59:39-05:00
385,lamu,-2.2717,40.902,28.12,82,97,4.55,KE,2024-01-30 23:59:40-05:00
386,jamestown,42.097,-79.2353,0.86,94,40,2.57,US,2024-01-30 23:59:40-05:00
387,barwala,29.3833,75.9167,18.49,39,48,3.82,IN,2024-01-30 23:59:41-05:00
388,ploudalmezeau,48.5333,-4.65,7.14,87,75,3.6,FR,2024-01-30 23:59:41-05:00
389,markaz-e hukumat-e darweshan,31.1323,64.1934,9.91,37,47,4.42,AF,2024-01-30 23:59:42-05:00
390,estancia,-11.2683,-37.4383,22.36,91,2,0.74,BR,2024-01-30 23:59:42-05:00
391,medina,24.4686,39.6142,11.24,37,0,0.0,SA,2024-01-30 23:59:43-05:00
392,morant bay,17.8815,-76.4093,24.79,84,54,3.15,JM,2024-01-30 23:59:43-05:00
393,kalmunai,7.4167,81.8167,27.99,77,9,1.92,LK,2024-01-30 23:59:43-05:00
394,vishnevogorsk,55.9913,60.6579,-10.12,96,87,1.61,RU,2024-01-30 23:59:44-05:00
395,loreto,22.2667,-101.9667,14.64,45,100,0.66,MX,2024-01-30 23:59:44-05:00
396,rio grande,-32.035,-52.0986,20.52,90,11,1.39,BR,2024-01-30 23:59:45-05:00
397,januaria,-15.4833,-44.3667,20.95,97,91,0.91,BR,2024-01-30 23:59:45-05:00
398,klimovo,52.3805,32.1923,-4.6,89,96,3.36,RU,2024-01-30 23:59:46-05:00
399,silvia,2.611,-76.3785,11.58,94,81,1.99,CO,2024-01-30 23:59:46-05:00
400,tamanrasset,22.785,5.5228,9.95,43,0,9.26,DZ,2024-01-30 23:59:47-05:00
401,kirensk,57.7853,108.1119,-29.46,94,42,1.34,RU,2024-01-30 23:59:47-05:00
402,port-vila,-17.7338,168.3219,28.78,74,75,2.57,VU,2024-01-30 23:59:48-05:00
403,howard springs,-12.497,131.047,34.43,75,76,4.74,AU,2024-01-30 23:59:48-05:00
404,zaysan,47.4667,84.8667,-13.01,94,89,0.87,KZ,2024-01-30 23:59:49-05:00
405,charters towers,-20.1,146.2667,35.85,40,86,2.57,AU,2024-01-30 23:59:49-05:00
406,yarmouth,41.7057,-70.2286,-2.24,78,100,2.24,US,2024-01-30 23:59:49-05:00
407,pangody,65.85,74.4859,-22.73,95,15,6.01,RU,2024-01-30 23:59:50-05:00
408,gereida,11.2811,25.1414,15.73,22,49,5.4,SD,2024-01-30 23:59:50-05:00
409,saint-philippe,-21.3585,55.7679,29.77,81,54,3.8,RE,2024-01-30 23:59:51-05:00
410,homer,59.6425,-151.5483,-11.07,78,100,0.0,US,2024-01-30 23:59:51-05:00
411,daund,18.4667,74.6,25.77,34,56,2.05,IN,2024-01-30 23:59:52-05:00
412,nukus,42.4531,59.6103,-8.01,86,0,4.12,UZ,2024-01-30 23:59:52-05:00
413,tupaciguara,-18.5922,-48.705,23.18,40,100,1.02,BR,2024-01-30 23:59:52-05:00
414,nilsia,63.2,28.0833,0.63,98,100,3.65,FI,2024-01-30 23:59:53-05:00
415,al majaridah,19.1236,41.9111,22.94,75,100,1.24,SA,2024-01-30 23:59:53-05:00
416,alpine,32.835,-116.7664,14.82,60,69,0.65,US,2024-01-30 23:55:31-05:00
417,ilhabela,-23.7781,-45.3581,24.25,81,100,1.38,BR,2024-01-30 23:59:54-05:00
418,nova vicosa,-17.8919,-39.3719,24.95,90,100,4.42,BR,2024-01-30 23:59:55-05:00
419,mogadishu,2.0371,45.3438,26.71,75,76,7.1,SO,2024-01-30 23:59:55-05:00
420,port douglas,-16.4833,145.4667,31.3,71,100,3.07,AU,2024-01-30 23:59:55-05:00
421,nakamura,32.9833,132.9333,12.75,91,100,2.21,JP,2024-01-30 23:59:56-05:00
422,robertsport,6.7533,-11.3686,27.06,82,71,1.79,LR,2024-01-30 23:59:57-05:00
423,ambovombe,-25.1667,46.0833,24.87,75,88,7.42,MG,2024-01-30 23:59:57-05:00
424,tambura,5.6,27.4667,20.5,30,94,2.28,SS,2024-01-30 23:59:58-05:00
425,holualoa,19.6228,-155.9522,22.65,96,50,0.45,US,2024-01-30 23:59:58-05:00
426,namdrik,5.5994,168.1028,27.6,83,100,8.48,MH,2024-01-30 23:59:58-05:00
427,takamatsu,34.3403,134.0433,11.16,76,75,2.57,JP,2024-01-30 23:59:59-05:00
428,chazuta,-6.5742,-76.1367,25.28,84,100,0.09,PE,2024-01-31 00:00:00-05:00
429,manokwari,-0.8667,134.0833,28.28,74,92,1.95,ID,2024-01-30 23:56:13-05:00
430,dubinino,55.6192,89.0911,-14.4,87,75,1.44,RU,2024-01-31 00:00:03-05:00
431,shanghai,31.2222,121.4581,12.18,93,100,2.0,CN,2024-01-30 23:54:12-05:00
432,agat village,13.3886,144.6585,29.52,61,0,10.29,GU,2024-01-30 23:56:40-05:00
433,imperatriz,-5.5264,-47.4917,25.03,94,0,1.03,BR,2024-01-31 00:00:12-05:00
434,smirnykh,49.75,142.8333,-12.3,76,82,1.48,RU,2024-01-31 00:00:13-05:00
435,sola,-13.8833,167.55,28.61,68,99,3.24,VU,2024-01-31 00:00:14-05:00
436,polyarnyy,69.1989,33.4478,0.05,72,100,14.82,RU,2024-01-31 00:00:15-05:00
437,zaragoza,41.6561,-0.8773,10.82,81,100,3.09,ES,2024-01-30 23:54:06-05:00
438,belmonte,-15.8631,-38.8828,23.43,93,19,1.25,BR,2024-01-31 00:00:17-05:00
439,bafoulabe,13.8065,-10.8321,22.75,14,96,1.37,ML,2024-01-31 00:00:18-05:00
440,inyonga,-6.7167,32.0667,18.52,94,95,1.17,TZ,2024-01-31 00:00:19-05:00
441,ghanzi,-21.5667,21.7833,21.0,83,100,2.79,BW,2024-01-31 00:00:20-05:00
442,thames,-37.1333,175.5333,22.7,71,56,3.2,NZ,2024-01-31 00:00:21-05:00
443,acarau,-2.8856,-40.12,25.93,86,6,3.13,BR,2024-01-30 23:57:49-05:00
444,viedma,-40.8135,-62.9967,23.27,67,1,3.51,AR,2024-01-31 00:00:22-05:00
445,kangaba,11.9333,-8.4167,21.7,18,84,2.89,ML,2024-01-31 00:00:23-05:00
446,saltpond,5.2091,-1.0606,24.32,90,7,1.94,GH,2024-01-31 00:00:24-05:00
447,vidigueira,38.1845,-7.7447,9.87,84,81,1.81,PT,2024-01-31 00:00:25-05:00
448,mangochi,-14.4782,35.2645,22.39,76,12,2.51,MW,2024-01-31 00:00:26-05:00
449,amalapuram,16.5833,82.0167,28.14,47,15,1.53,IN,2024-01-31 00:00:27-05:00
450,murzuq,25.9155,13.9184,6.26,67,0,4.34,LY,2024-01-31 00:00:28-05:00
451,hailin,44.5833,129.4167,-13.42,73,75,6.77,CN,2024-01-31 00:00:29-05:00
452,tarauaca,-8.1614,-70.7656,23.73,97,100,0.51,BR,2024-01-31 00:00:30-05:00
453,monrovia,6.3005,-10.7969,26.32,83,69,1.68,LR,2024-01-31 00:00:13-05:00
454,ta`u,-14.2336,-169.5144,29.17,72,93,2.47,AS,2024-01-31 00:00:31-05:00
455,seaside,36.6111,-121.8516,13.97,89,0,2.06,US,2024-01-31 00:00:08-05:00
456,mount isa,-20.7333,139.5,26.87,83,100,7.2,AU,2024-01-31 00:00:33-05:00
457,kenai,60.5544,-151.2583,-21.06,82,20,0.0,US,2024-01-31 00:00:33-05:00
458,vernon,50.2581,-119.2691,7.01,93,100,3.09,CA,2024-01-31 00:00:34-05:00
459,mendaha,-1.0333,103.5833,30.97,59,85,2.46,ID,2024-01-31 00:00:36-05:00
460,east london,-33.0153,27.9116,22.52,88,0,2.57,ZA,2024-01-31 00:00:37-05:00
461,tofol,5.3248,163.0078,30.88,70,75,3.6,FM,2024-01-31 00:00:38-05:00
462,barhi,23.9,80.8,20.83,35,100,2.78,IN,2024-01-31 00:00:38-05:00
463,aral,40.5156,81.2636,-0.24,41,100,1.55,CN,2024-01-31 00:00:39-05:00
464,kamaishi,39.2667,141.8833,9.26,59,72,5.76,JP,2024-01-31 00:00:40-05:00
465,le krib,36.328,9.1361,0.84,83,8,0.92,TN,2024-01-31 00:00:41-05:00
466,kailua-kona,19.6406,-155.9956,25.98,92,100,4.12,US,2024-01-30 23:56:22-05:00
467,port isabel,26.0734,-97.2086,17.23,84,100,2.75,US,2024-01-31 00:00:13-05:00
468,high springs,29.8269,-82.5968,9.1,85,69,0.89,US,2024-01-31 00:00:42-05:00
469,zolotonosha,49.6689,32.0377,0.01,67,82,2.76,UA,2024-01-31 00:00:42-05:00
470,emerald,-23.5333,148.1667,31.3,67,85,4.23,AU,2024-01-30 23:57:12-05:00
471,iskushuban,10.2837,50.23,22.45,66,5,1.29,SO,2024-01-31 00:00:51-05:00
472,cambria,35.5641,-121.0808,13.76,96,59,1.92,US,2024-01-31 00:00:52-05:00
473,port saint john's,-31.6229,29.5448,23.62,86,67,5.0,ZA,2024-01-31 00:00:52-05:00
474,trabia,38.0065,13.6336,8.97,68,0,2.12,IT,2024-01-31 00:00:53-05:00
475,kievka,50.2619,71.5514,-8.47,96,88,3.97,KZ,2024-01-31 00:00:53-05:00
476,pacasmayo,-7.4006,-79.5714,22.92,89,85,4.4,PE,2024-01-31 00:00:54-05:00
477,port blair,11.6667,92.75,30.02,70,75,4.12,IN,2024-01-31 00:01:01-05:00
478,sanming,26.2486,117.6186,24.5,65,61,0.8,CN,2024-01-31 00:01:04-05:00
479,karachev,53.1229,34.9852,-4.16,92,100,2.4,RU,2024-01-31 00:01:07-05:00
480,narra,9.3167,118.4,30.84,61,68,3.14,PH,2024-01-31 00:01:07-05:00
481,oamaru,-45.0784,170.9801,19.1,76,59,5.39,NZ,2024-01-31 00:01:08-05:00
482,hami,42.8,93.45,-0.95,56,100,3.42,CN,2024-01-31 00:01:08-05:00
483,idri,27.5,13.2667,6.42,72,0,3.94,LY,2024-01-31 00:01:09-05:00
484,umm kaddadah,13.6017,26.6876,14.03,29,49,7.02,SD,2024-01-31 00:01:09-05:00
485,micheweni,-4.9667,39.8333,27.95,76,100,5.56,TZ,2024-01-31 00:01:10-05:00
486,sumbawa besar,-8.5,117.4333,30.47,69,100,2.53,ID,2024-01-31 00:01:10-05:00
487,beykonak,36.3257,30.303,9.22,59,99,2.55,TR,2024-01-31 00:01:16-05:00
488,mount gambier,-37.8333,140.7667,21.93,47,4,4.36,AU,2024-01-31 00:01:19-05:00
489,rzhev,56.2624,34.3282,-3.72,95,100,2.5,RU,2024-01-31 00:01:22-05:00
490,uliastay,47.7417,96.8444,-10.78,65,95,1.29,MN,2024-01-31 00:01:22-05:00
491,caconda,-13.7333,15.0667,15.69,96,100,0.42,AO,2024-01-31 00:01:23-05:00
492,marka,1.7159,44.7717,26.99,73,58,7.28,SO,2024-01-31 00:01:24-05:00
493,yaren,-0.5472,166.916,28.87,73,100,4.52,NR,2024-01-31 00:01:25-05:00
494,sanchursk,56.9413,47.2499,-8.23,93,7,3.2,RU,2024-01-31 00:01:25-05:00
495,pakxan,18.3778,103.6601,32.18,45,80,1.71,LA,2024-01-31 00:01:26-05:00
496,tokoroa,-38.2333,175.8667,25.48,46,63,2.78,NZ,2024-01-31 00:01:27-05:00
497,changchun,43.88,125.3228,-15.02,76,64,4.33,CN,2024-01-30 23:54:28-05:00
498,sao desiderio,-12.3633,-44.9733,21.46,92,78,0.42,BR,2024-01-31 00:01:28-05:00
499,menongue,-14.6585,17.691,17.05,95,99,0.39,AO,2024-01-31 00:01:29-05:00
500,salalah,17.0151,54.0924,24.05,78,72,0.69,OM,2024-01-30 23:59:48-05:00
501,malango,-2.9627,119.9001,26.07,84,87,0.81,ID,2024-01-31 00:01:31-05:00
502,siwa oasis,29.2041,25.5195,8.2,79,31,4.88,EG,2024-01-31 00:01:31-05:00
503,guixi,28.2886,117.2133,20.15,75,40,1.82,CN,2024-01-31 00:01:32-05:00
504,walvis bay,-22.9575,14.5053,17.53,94,100,2.06,NA,2024-01-31 00:01:33-05:00
505,sur,22.5667,59.5289,25.37,60,100,1.18,OM,2024-01-31 00:01:34-05:00
506,puerto aysen,-45.4,-72.7,14.06,99,100,2.18,CL,2024-01-31 00:01:35-05:00
507,reedsburg,43.5325,-90.0026,1.62,93,100,2.57,US,2024-01-31 00:01:36-05:00
508,kourou,5.1552,-52.6478,27.03,87,18,3.47,GF,2024-01-31 00:00:12-05:00
509,anqing,30.5092,117.0506,11.27,92,100,2.16,CN,2024-01-31 00:01:37-05:00
510,ketchikan,55.3422,-131.6461,8.99,95,100,2.49,US,2024-01-30 23:59:54-05:00
511,boguchany,58.3814,97.4531,-25.08,91,12,0.89,RU,2024-01-31 00:01:38-05:00
512,mineral wells,32.8085,-98.1128,16.12,47,11,1.08,US,2024-01-31 00:01:39-05:00
513,lata,40.1629,-8.3327,8.84,78,99,2.0,PT,2024-01-31 00:01:40-05:00
514,saldanha,-33.0117,17.9442,18.03,92,98,2.56,ZA,2024-01-31 00:01:40-05:00
515,huarmey,-10.0681,-78.1522,24.03,82,100,2.47,PE,2024-01-31 00:01:41-05:00
516,nagqu,31.5,92.0,-4.88,19,63,6.65,CN,2024-01-31 00:01:42-05:00
517,xinzhuang,39.0203,117.3239,0.01,59,40,5.0,CN,2024-01-31 00:01:43-05:00
518,lebyazh'ye,55.2689,66.4947,-18.95,98,36,3.45,RU,2024-01-31 00:01:44-05:00
519,newman,37.3138,-121.0208,16.27,73,82,0.89,US,2024-01-31 00:01:45-05:00
520,alaghsas,17.0187,8.0168,17.8,25,24,8.01,NE,2024-01-31 00:01:45-05:00
521,horta,38.5333,-28.6333,12.79,87,30,2.68,PT,2024-01-31 00:01:46-05:00
522,barra,-11.0894,-43.1417,22.67,81,30,1.05,BR,2024-01-31 00:01:47-05:00
523,carinhanha,-14.3047,-43.765,21.8,92,87,1.0,BR,2024-01-31 00:01:47-05:00
524,simenqian,27.4872,110.8861,12.28,97,100,1.1,CN,2024-01-31 00:01:48-05:00
525,santa cruz,-17.8,-63.1667,24.7,94,41,3.09,BO,2024-01-31 00:01:49-05:00
526,huadian,42.9633,126.7478,-12.17,75,100,4.66,CN,2024-01-31 00:01:49-05:00
527,cikarang,-6.2611,107.1528,29.05,82,96,3.71,ID,2024-01-31 00:01:50-05:00
528,diamantina,-18.2494,-43.6003,17.03,93,100,1.55,BR,2024-01-31 00:01:51-05:00
529,la ronge,55.1001,-105.2842,7.14,49,0,6.17,CA,2024-01-31 00:01:52-05:00
530,illizi,26.4833,8.4667,6.89,49,0,5.59,DZ,2024-01-31 00:01:53-05:00
531,fort bragg,35.139,-79.006,7.91,83,75,1.54,US,2024-01-31 00:01:54-05:00
532,lewiston orchards,46.3804,-116.9754,11.81,74,0,4.12,US,2024-01-31 00:01:55-05:00
533,ornskoldsvik,63.2909,18.7153,-12.47,85,20,2.06,SE,2024-01-31 00:01:55-05:00
534,iquique,-20.2208,-70.1431,20.02,79,42,0.88,CL,2024-01-31 00:01:56-05:00
535,northam,51.0333,-4.2167,4.03,87,57,4.43,GB,2024-01-31 00:01:57-05:00
536,kachhwa,25.2167,82.7167,15.99,42,43,1.63,IN,2024-01-31 00:01:58-05:00
537,aleg,17.0481,-13.9209,19.6,11,0,5.15,MR,2024-01-31 00:01:59-05:00
538,mashhad,36.297,59.6062,1.08,86,20,2.06,IR,2024-01-31 00:01:59-05:00
539,manggar,-2.8833,108.2667,27.34,80,100,1.92,ID,2024-01-31 00:02:00-05:00
540,dalby,-27.1833,151.2667,31.87,39,12,6.93,AU,2024-01-31 00:02:00-05:00
541,severo-yeniseyskiy,60.3725,93.0408,-21.9,81,20,0.89,RU,2024-01-31 00:02:01-05:00
542,rawson,-43.3002,-65.1023,24.91,33,15,5.12,AR,2024-01-31 00:02:01-05:00
543,goz beida,13.95,20.55,16.73,26,2,3.0,TD,2024-01-31 00:02:02-05:00
544,lutjenburg,54.2919,10.5895,4.9,83,89,3.58,DE,2024-01-31 00:02:03-05:00
545,businga,3.3333,20.8833,22.85,47,100,0.63,CD,2024-01-31 00:02:03-05:00
546,souillac,-20.5167,57.5167,28.21,78,40,2.06,MU,2024-01-31 00:02:04-05:00
547,sao vicente,-23.9631,-46.3919,29.1,26,96,0.76,BR,2024-01-31 00:02:04-05:00
548,pickering,43.9001,-79.1329,3.43,93,100,1.54,CA,2024-01-30 23:58:32-05:00
549,bubaque,11.2833,-15.8333,25.33,66,90,3.65,GW,2024-01-31 00:02:05-05:00
550,isangel,-19.55,169.2667,26.64,76,44,2.08,VU,2024-01-31 00:02:06-05:00
551,nema,57.5067,50.5011,-7.4,94,62,3.26,RU,2024-01-31 00:02:07-05:00
552,tianshui,34.5439,105.6897,1.79,84,100,1.27,CN,2024-01-31 00:02:08-05:00
553,abbeville,50.1,1.8333,6.98,87,56,2.72,FR,2024-01-31 00:02:08-05:00
554,kenora,49.8167,-94.4337,-0.46,93,20,5.14,CA,2024-01-30 23:59:06-05:00
555,shendi,16.6915,33.4341,15.16,30,2,5.94,SD,2024-01-31 00:02:13-05:00
556,chonchi,-42.6128,-73.8092,15.56,99,94,0.87,CL,2024-01-31 00:02:14-05:00
557,mianwali,32.5741,71.5264,15.18,54,0,1.99,PK,2024-01-31 00:02:14-05:00
558,ypsonas,34.6884,32.9574,11.54,71,75,10.8,CY,2024-01-31 00:02:15-05:00
559,dakhla,23.6848,-15.958,19.18,40,0,4.05,EH,2024-01-31 00:02:15-05:00
560,katsuren-haebaru,26.3369,127.8719,26.43,67,75,5.14,JP,2024-01-31 00:02:16-05:00
561,ribadesella,43.4614,-5.0596,13.19,73,96,1.44,ES,2024-01-31 00:02:17-05:00
